{"locations":[{"data":{"title":"Adams Street Library","address":"9 Adams Street (between John and Plymouth) Brooklyn, NY 11201","phone":"718.230.2264","position":"40.723156249003, -74.010325248191","bus":"B25;B67","subway":"A;C;F","Monday":"10:00am - 6:00pm","Tuesday":"1:00pm - 8:00pm","Wednesday":"10:00am - 6:00pm","Thursday":"10:00am - 8:00pm","Friday":"10:00am - 6:00pm","Saturday":"10:00am - 5:00pm","Sunday":"","hours":"Today's Hours: 10:00am - 5:00pm","closingmsg":"","access":"Fully accessible","tags":"accessible;closed;","path":"https://www.bklynlibrary.org/locations/adams-street","branchid":"88","pickuploc":"1","branchlist":"1","region":"ParkSlope"}},{"data":{"title":"Arlington Library","address":"203 Arlington Ave. at Warwick St. Brooklyn, NY 11207","phone":"718.277.6105","position":"40.680663100000, -73.887342100000","bus":"Q24;Q56","subway":"J","Monday":"10:00am - 6:00pm","Tuesday":"1:00pm - 8:00pm","Wednesday":"10:00am - 6:00pm","Thursday":"10:00am - 8:00pm","Friday":"10:00am - 6:00pm","Saturday":"10:00am - 5:00pm","Sunday":"","hours":"Today's Hours: 10:00am - 5:00pm","closingmsg":"","access":"Fully accessible","tags":"accessible;closed;","path":"https://www.bklynlibrary.org/locations/arlington","branchid":"21","pickuploc":"1","branchlist":"1","region":"NewLots"}},{"data":{"title":"Bay Ridge Library","address":"7223 Ridge Blvd. at 73rd St. Brooklyn, NY 11209","phone":"718.748.5709","position":"40.633606800000, -74.029507300000","bus":"B4;B9;B64;B70","subway":"R","Monday":"10:00am - 6:00pm","Tuesday":"1:00pm - 8:00pm","Wednesday":"10:00am - 6:00pm","Thursday":"10:00am - 8:00pm","Friday":"10:00am - 6:00pm","Saturday":"10:00am - 5:00pm","Sunday":"","hours":"Today's Hours: 10:00am - 5:00pm","closingmsg":"","access":"Fully accessible","tags":"accessible;closed;book drop;","path":"https://www.bklynlibrary.org/locations/bay-ridge","branchid":"28","pickuploc":"1","branchlist":"1","region":"NewUtrecht"}},{"data":{"title":"(CLOSED) Bedford Library","address":"496 Franklin Avenue Brooklyn, NY 11238","phone":"718.623.0012","position":"40.681842100000, -73.956194400000","bus":"B25;B26;B48;B49","subway":"C;S","Monday":"","Tuesday":"","Wednesday":"","Thursday":"","Friday":"","Saturday":"","Sunday":"","hours":"Closed for Renovation","closingmsg":"Bedford Library is closed\u00a0for\u00a0a major heating and cooling upgrade; it is expected to reopen in Spring 2024.\u00a0Please see our\u00a0location map\u00a0for a list of branches for nearby locations to visit and place holds.\u00a0\r\n","access":"Fully accessible","tags":"accessible;closed for renovation;","path":"https://www.bklynlibrary.org/locations/bedford","branchid":"22","pickuploc":"0","branchlist":"1","region":"CrownHeights"}},{"data":{"title":"Borough Park Library","address":"1265 43rd St. at 13th Ave. Brooklyn, NY 11219","phone":"718.437.4085","position":"40.638612929956, -73.988799480605","bus":"B11;B16;B35","subway":"D","Monday":"10:00am - 6:00pm","Tuesday":"1:00pm - 8:00pm","Wednesday":"10:00am - 6:00pm","Thursday":"10:00am - 8:00pm","Friday":"10:00am - 6:00pm","Saturday":"10:00am - 5:00pm","Sunday":"1:00pm - 5:00pm","hours":"Today's Hours: 10:00am - 5:00pm","closingmsg":"","access":"Fully accessible","tags":"accessible;closed;book drop;open sundays","path":"https://www.bklynlibrary.org/locations/borough-park","branchid":"25","pickuploc":"1","branchlist":"1","region":"Flatbush"}},{"data":{"title":"Brighton Beach Library","address":"16 Brighton First Rd. at Brighton Beach Ave. Brooklyn, NY 11235","phone":"718.946.2917","position":"40.576178400000, -73.966799500000","bus":"B1;B68","subway":"B;Q","Monday":"10:00am - 6:00pm","Tuesday":"1:00pm - 8:00pm","Wednesday":"10:00am - 6:00pm","Thursday":"10:00am - 8:00pm","Friday":"10:00am - 6:00pm","Saturday":"10:00am - 5:00pm","Sunday":"","hours":"Today's Hours: 10:00am - 5:00pm","closingmsg":"","access":"Fully accessible","tags":"accessible;closed;book drop;","path":"https://www.bklynlibrary.org/locations/brighton-beach","branchid":"24","pickuploc":"1","branchlist":"1","region":"KingsHighway"}},{"data":{"title":"Brooklyn Heights Library","address":"286 Cadman Plaza West Brooklyn, NY 11201","phone":"718.623.7100","position":"40.695645800000, -73.991297600000","bus":"B25;B26;B41;B52;B103","subway":"2;3;4;5;6;A;C;F;R","Monday":"10:00am - 6:00pm","Tuesday":"1:00pm - 8:00pm","Wednesday":"10:00am - 6:00pm","Thursday":"10:00am - 8:00pm","Friday":"10:00am - 6:00pm","Saturday":"10:00am - 5:00pm","Sunday":"1:00pm - 5:00pm","hours":"Today's Hours: 10:00am - 5:00pm","closingmsg":"","access":"Fully accessible","tags":"accessible;closed;book drop;open sundays","path":"https://www.bklynlibrary.org/locations/brooklyn-heights","branchid":"50","pickuploc":"1","branchlist":"1","region":"ParkSlope"}},{"data":{"title":"Brower Park Library at Brooklyn Children's Museum","address":"155 Brooklyn Ave Brooklyn, NY 11213","phone":"718.230.2227","position":"40.674427500000, -73.944374000000","bus":"B44;B45;B65","subway":"3;A;C","Monday":"10:00am - 6:00pm","Tuesday":"1:00pm - 8:00pm","Wednesday":"10:00am - 6:00pm","Thursday":"10:00am - 8:00pm","Friday":"10:00am - 6:00pm","Saturday":"10:00am - 5:00pm","Sunday":"","hours":"Today's Hours: 10:00am - 5:00pm","closingmsg":"","access":"Fully accessible","tags":"accessible;closed;","path":"https://www.bklynlibrary.org/locations/brower-park","branchid":"79","pickuploc":"1","branchlist":"1","region":"CrownHeights"}},{"data":{"title":"Brownsville Library","address":"61 Glenmore Ave. at Watkins St. Brooklyn, NY 11212","phone":"718.498.9721","position":"40.671447500000, -73.908586300000","bus":"B12;B14;B60","subway":"3;J;L","Monday":"10:00am - 6:00pm","Tuesday":"1:00pm - 8:00pm","Wednesday":"10:00am - 6:00pm","Thursday":"10:00am - 8:00pm","Friday":"10:00am - 6:00pm","Saturday":"10:00am - 5:00pm","Sunday":"","hours":"Today's Hours: 10:00am - 5:00pm","closingmsg":"","access":"Fully accessible","tags":"accessible;closed;","path":"https://www.bklynlibrary.org/locations/brownsville","branchid":"27","pickuploc":"1","branchlist":"1","region":"NewLots"}},{"data":{"title":"Bushwick Library","address":"340 Bushwick Avenue Brooklyn, NY 11206","phone":"718.602.1348","position":"40.704569400000, -73.939610100000","bus":"B43;B46;B57;B60","subway":"J;L;M","Monday":"10:00am - 6:00pm","Tuesday":"1:00pm - 8:00pm","Wednesday":"10:00am - 6:00pm","Thursday":"10:00am - 8:00pm","Friday":"10:00am - 6:00pm","Saturday":"10:00am - 5:00pm","Sunday":"","hours":"Today's Hours: 10:00am - 5:00pm","closingmsg":"","access":"Fully accessible","tags":"accessible;closed;book drop;","path":"https://www.bklynlibrary.org/locations/bushwick","branchid":"29","pickuploc":"1","branchlist":"1","region":"CrownHeights"}},{"data":{"title":"Canarsie Library","address":"1580 Rockaway Pkwy. at Ave. J Brooklyn, NY 11236","phone":"718.257.6547","position":"40.642216700000, -73.899560700000","bus":"B6;B42;B60;B82","subway":"L","Monday":"10:00am - 6:00pm","Tuesday":"1:00pm - 8:00pm","Wednesday":"10:00am - 6:00pm","Thursday":"10:00am - 8:00pm","Friday":"10:00am - 6:00pm","Saturday":"10:00am - 5:00pm","Sunday":"","hours":"Today's Hours: 10:00am - 5:00pm","closingmsg":"","access":"Partially accessible","tags":"accessible;closed;book drop;","path":"https://www.bklynlibrary.org/locations/canarsie","branchid":"34","pickuploc":"1","branchlist":"1","region":"NewLots"}},{"data":{"title":"(CLOSED) Carroll Gardens Library","address":"396 Clinton St. Brooklyn, NY 11231","phone":"718.596.6972","position":"40.683196200000, -73.998016000000","bus":"","subway":"F;G","Monday":"10:00am - 6:00pm","Tuesday":"1:00pm - 8:00pm","Wednesday":"10:00am - 6:00pm","Thursday":"10:00am - 8:00pm","Friday":"10:00am - 6:00pm","Saturday":"10:00am - 5:00pm","Sunday":"","hours":"Closed for Renovation","closingmsg":"We\u2019re making major improvements to Carroll Gardens Library!\u00a0The branch closed for a comprehensive renovation on July 21, 2023.\u00a0\r\n\r\nAll holds from Carroll Gardens Library\u2019s hold shelf will be available for pickup at\u00a0Park Slope Library located at 431 6th Avenue.\u00a0 \u00a0\r\n\r\n\u00a0\r\n","access":"Fully accessible","tags":"accessible;closed for renovation;book drop;","path":"https://www.bklynlibrary.org/locations/carroll-gardens","branchid":"31","pickuploc":"0","branchlist":"1","region":"ParkSlope"}},{"data":{"title":"Center for Brooklyn History","address":"128 Pierrepont Street Brooklyn, NY 11201","phone":"718.222.4111","position":"40.694796300000, -73.992441000000","bus":"","subway":"","Monday":"10:00am - 6:00pm","Tuesday":"10:00am - 6:00pm","Wednesday":"10:00am - 6:00pm","Thursday":"10:00am - 6:00pm","Friday":"10:00am - 6:00pm","Saturday":"10:00am - 4:00pm","Sunday":"","hours":"Today's Hours: 10:00am - 4:00pm","closingmsg":"","access":"Fully accessible","tags":"accessible;closed;","path":"https://www.bklynlibrary.org/locations/center-for-brooklyn-history","branchid":"91","pickuploc":"0","branchlist":"1","region":"CBH"}},{"data":{"title":"Central Library","address":"10 Grand Army Plaza Brooklyn, NY 11238","phone":"718.230.2100","position":"40.672501100000, -73.968126500000","bus":"B41","subway":"2;3;B;Q","Monday":"9:00am - 8:00pm","Tuesday":"9:00am - 8:00pm","Wednesday":"9:00am - 8:00pm","Thursday":"9:00am - 8:00pm","Friday":"9:00am - 6:00pm","Saturday":"9:00am - 6:00pm","Sunday":"1:00pm - 5:00pm","hours":"Today's Hours: 9:00am - 6:00pm","closingmsg":"","access":"Fully accessible","tags":"accessible;closed;passport office;book drop;open sundays","path":"https://www.bklynlibrary.org/locations/central","branchid":"01","pickuploc":"1","branchlist":"1","region":"Central"}},{"data":{"title":"(CLOSED) Clarendon Library","address":"2035 Nostrand Ave. Brooklyn, NY 11210","phone":"718.421.1159 ","position":"40.635758900000, -73.947600600000","bus":"B6;B11;B41;B44;Q35","subway":"2;5","Monday":"10:00am - 6:00pm","Tuesday":"1:00pm - 8:00pm","Wednesday":"10:00am - 6:00pm","Thursday":"10:00am - 8:00pm","Friday":"10:00am - 6:00pm","Saturday":"10:00am - 5:00pm","Sunday":"","hours":"Closed for Renovation","closingmsg":"Clarendon\u00a0Library\u00a0is closed for a major heating and cooling upgrade as well a garden renovation. Clarendon Library is expected to reopen Spring 2024.\u00a0\r\n\r\nPlease see our\u00a0location map\u00a0for a list of branches that are currently open; nearby branches include:\u00a0\r\n\r\nCortelyou Library/ 1305 Cortelyou Rd/ Brooklyn, NY 11226/ 718.693.7763\r\n\r\nFlatbush Library/ 22 Linden Blvd/ Brooklyn NY 11226/ 718.856.0813\r\n\r\nFlatlands Library/ 2065 Flatbush Avenue/ Brooklyn NY 11234\r\n\r\nRugby Library/ 1000 Utica Avenue/ Brooklyn NY 11203/ 718.556.0053\r\n\r\n\u00a0\r\n\r\n\u00a0\r\n\r\n\r\n\u00a0\r\n","access":"Fully accessible","tags":"accessible;closed for renovation;book drop;","path":"https://www.bklynlibrary.org/locations/clarendon","branchid":"33","pickuploc":"0","branchlist":"1","region":"Flatbush"}},{"data":{"title":"Clinton Hill Library","address":"380 Washington Ave. at Lafayette Ave. Brooklyn, NY 11238","phone":"718.398.8713","position":"40.688548900000, -73.962989600000","bus":"B25;B26;B38;B52;B69","subway":"C;G","Monday":"10:00am - 6:00pm","Tuesday":"1:00pm - 8:00pm","Wednesday":"10:00am - 6:00pm","Thursday":"10:00am - 8:00pm","Friday":"10:00am - 6:00pm","Saturday":"10:00am - 5:00pm","Sunday":"","hours":"Today's Hours: 10:00am - 5:00pm","closingmsg":"","access":"Fully accessible","tags":"accessible;closed;book drop;","path":"https://www.bklynlibrary.org/locations/clinton-hill","branchid":"83","pickuploc":"1","branchlist":"1","region":"ParkSlope"}},{"data":{"title":"Coney Island Library","address":"1901 Mermaid Ave. (Near W. 19th St.) Brooklyn, NY 11224","phone":"718.265.3220","position":"40.576765100000, -73.986079100000","bus":"B36;B64;B68;B74;B82","subway":"D;F;N;Q","Monday":"10:00am - 6:00pm","Tuesday":"1:00pm - 8:00pm","Wednesday":"10:00am - 6:00pm","Thursday":"10:00am - 8:00pm","Friday":"10:00am - 6:00pm","Saturday":"10:00am - 5:00pm","Sunday":"","hours":"Today's Hours: 10:00am - 5:00pm","closingmsg":"","access":"Fully accessible","tags":"accessible;closed;book drop;","path":"https://www.bklynlibrary.org/locations/coney-island","branchid":"32","pickuploc":"1","branchlist":"1","region":"NewUtrecht"}},{"data":{"title":"Cortelyou Library","address":"1305 Cortelyou Rd. at Argyle Rd. Brooklyn, NY 11226","phone":"718.693.7763","position":"40.640585621376, -73.965975480456","bus":"B68;B103","subway":"Q","Monday":"10:00am - 6:00pm","Tuesday":"1:00pm - 8:00pm","Wednesday":"10:00am - 6:00pm","Thursday":"10:00am - 8:00pm","Friday":"10:00am - 6:00pm","Saturday":"10:00am - 5:00pm","Sunday":"","hours":"Today's Hours: 10:00am - 5:00pm","closingmsg":"","access":"Fully accessible","tags":"accessible;closed;book drop;","path":"https://www.bklynlibrary.org/locations/cortelyou","branchid":"87","pickuploc":"1","branchlist":"1","region":"Flatbush"}},{"data":{"title":"Crown Heights Library","address":"560 New York Ave. at Maple St. Brooklyn, NY 11225","phone":"718.773.1180","position":"40.661198100000, -73.948151700000","bus":"B43;B44","subway":"2;5","Monday":"10:00am - 6:00pm","Tuesday":"1:00pm - 8:00pm","Wednesday":"10:00am - 6:00pm","Thursday":"10:00am - 8:00pm","Friday":"10:00am - 6:00pm","Saturday":"10:00am - 5:00pm","Sunday":"","hours":"Today's Hours: 10:00am - 5:00pm","closingmsg":"","access":"Fully accessible","tags":"accessible;closed;book drop;","path":"https://www.bklynlibrary.org/locations/crown-heights","branchid":"30","pickuploc":"1","branchlist":"1","region":"CrownHeights"}},{"data":{"title":"Cypress Hills Library","address":"1197 Sutter Ave. at Crystal St. Brooklyn, NY 11208","phone":"718.277.6004","position":"40.672646500000, -73.874089200000","bus":"B14;B15","subway":"3;A;C","Monday":"10:00am - 6:00pm","Tuesday":"1:00pm - 8:00pm","Wednesday":"10:00am - 6:00pm","Thursday":"10:00am - 8:00pm","Friday":"10:00am - 6:00pm","Saturday":"10:00am - 5:00pm","Sunday":"","hours":"Today's Hours: 10:00am - 5:00pm","closingmsg":"","access":"Fully accessible","tags":"accessible;closed;book drop;","path":"https://www.bklynlibrary.org/locations/cypress-hills","branchid":"65","pickuploc":"1","branchlist":"1","region":"NewLots"}},{"data":{"title":"DeKalb Library","address":"790 Bushwick Ave. at DeKalb Ave. Brooklyn, NY 11221","phone":"718.455.3898","position":"40.694785700000, -73.928404400000","bus":"B38;B46;B47","subway":"J;Z","Monday":"10:00am - 6:00pm","Tuesday":"1:00pm - 8:00pm","Wednesday":"10:00am - 6:00pm","Thursday":"10:00am - 8:00pm","Friday":"10:00am - 6:00pm","Saturday":"10:00am - 5:00pm","Sunday":"","hours":"Today's Hours: 10:00am - 5:00pm","closingmsg":"","access":"Partially accessible","tags":"accessible;closed;","path":"https://www.bklynlibrary.org/locations/dekalb","branchid":"35","pickuploc":"1","branchlist":"1","region":"CrownHeights"}},{"data":{"title":"Dyker Library","address":"8202 13th Ave. (@ 82nd St.) Brooklyn, NY 11228","phone":"718.748.6261","position":"40.615409856772, -74.010205426700","bus":"B64","subway":"D","Monday":"10:00am - 6:00pm","Tuesday":"1:00pm - 8:00pm","Wednesday":"10:00am - 6:00pm","Thursday":"10:00am - 8:00pm","Friday":"10:00am - 6:00pm","Saturday":"10:00am - 5:00pm","Sunday":"","hours":"Today's Hours: 10:00am - 5:00pm","closingmsg":"","access":"Fully accessible","tags":"accessible;closed;","path":"https://www.bklynlibrary.org/locations/dyker","branchid":"82","pickuploc":"1","branchlist":"1","region":"NewUtrecht"}},{"data":{"title":"East Flatbush Library","address":"9612 Church Ave Brooklyn, NY 11212","phone":"718.922.0927","position":"40.655649600000, -73.915076800000","bus":"B8;B15;B35","subway":"3","Monday":"10:00am - 6:00pm","Tuesday":"1:00pm - 8:00pm","Wednesday":"10:00am - 6:00pm","Thursday":"10:00am - 8:00pm","Friday":"10:00am - 6:00pm","Saturday":"10:00am - 5:00pm","Sunday":"","hours":"Today's Hours: 10:00am - 5:00pm","closingmsg":"","access":"Fully accessible","tags":"accessible;closed;","path":"https://www.bklynlibrary.org/locations/east-flatbush","branchid":"36","pickuploc":"1","branchlist":"1","region":"Flatbush"}},{"data":{"title":"Eastern Parkway Library","address":"1044 Eastern Pkwy. at Schenectady Ave. Brooklyn, NY 11213","phone":"718.953.4225","position":"40.668780530386, -73.933826588829","bus":"B14;B17;B46;B47","subway":"3;4","Monday":"10:00am - 6:00pm","Tuesday":"1:00pm - 8:00pm","Wednesday":"10:00am - 6:00pm","Thursday":"10:00am - 8:00pm","Friday":"10:00am - 6:00pm","Saturday":"10:00am - 5:00pm","Sunday":"","hours":"Today's Hours: 10:00am - 5:00pm","closingmsg":"","access":"Fully accessible","tags":"accessible;closed;","path":"https://www.bklynlibrary.org/locations/eastern-parkway","branchid":"37","pickuploc":"1","branchlist":"1","region":"CrownHeights"}},{"data":{"title":"Flatbush Library","address":"22 Linden Blvd. at Flatbush Ave. Brooklyn, NY 11226","phone":"718.856.0813","position":"40.652028809381, -73.958749310921","bus":"B12;B16;B35;B41;B49","subway":"2;5;B;Q","Monday":"10:00am - 6:00pm","Tuesday":"1:00pm - 8:00pm","Wednesday":"10:00am - 6:00pm","Thursday":"10:00am - 8:00pm","Friday":"10:00am - 6:00pm","Saturday":"10:00am - 5:00pm","Sunday":"","hours":"Today's Hours: 10:00am - 5:00pm","closingmsg":"","access":"Fully accessible","tags":"accessible;closed;book drop;","path":"https://www.bklynlibrary.org/locations/flatbush","branchid":"38","pickuploc":"1","branchlist":"1","region":"Flatbush"}},{"data":{"title":"Flatlands Library","address":"2065 Flatbush Ave. at Ave. P Brooklyn, NY 11234","phone":"718.253.4409","position":"40.619785300000, -73.933180700000","bus":"B9;B41;B82;Q35","subway":"","Monday":"10:00am - 6:00pm","Tuesday":"1:00pm - 8:00pm","Wednesday":"10:00am - 6:00pm","Thursday":"10:00am - 8:00pm","Friday":"10:00am - 6:00pm","Saturday":"10:00am - 5:00pm","Sunday":"","hours":"Today's Hours: 10:00am - 5:00pm","closingmsg":"","access":"Fully accessible","tags":"accessible;closed;book drop;","path":"https://www.bklynlibrary.org/locations/flatlands","branchid":"39","pickuploc":"1","branchlist":"1","region":"Flatbush"}},{"data":{"title":"Fort Hamilton Library","address":"9424 Fourth Ave. Brooklyn, NY 11209","phone":"718.748.6919","position":"40.616380600000, -74.031343400000","bus":"B8;B63","subway":"R","Monday":"10:00am - 6:00pm","Tuesday":"1:00pm - 8:00pm","Wednesday":"10:00am - 6:00pm","Thursday":"10:00am - 8:00pm","Friday":"10:00am - 6:00pm","Saturday":"10:00am - 5:00pm","Sunday":"","hours":"Today's Hours: 10:00am - 5:00pm","closingmsg":"","access":"Fully accessible","tags":"accessible;closed;","path":"https://www.bklynlibrary.org/locations/fort-hamilton","branchid":"40","pickuploc":"1","branchlist":"1","region":"NewUtrecht"}},{"data":{"title":"Gerritsen Beach Library","address":"2808 Gerritsen Ave. Brooklyn, NY 11229","phone":"718.368.1435","position":"40.591397700000, -73.923995500000","bus":"B31","subway":"B;Q","Monday":"10:00am - 6:00pm","Tuesday":"1:00pm - 8:00pm","Wednesday":"10:00am - 6:00pm","Thursday":"10:00am - 8:00pm","Friday":"10:00am - 6:00pm","Saturday":"10:00am - 5:00pm","Sunday":"","hours":"Today's Hours: 10:00am - 5:00pm","closingmsg":"","access":"Fully accessible","tags":"accessible;closed;book drop;","path":"https://www.bklynlibrary.org/locations/gerritsen-beach","branchid":"66","pickuploc":"1","branchlist":"1","region":"KingsHighway"}},{"data":{"title":"Gravesend Library","address":"303 Ave. X at West. 2nd St. Brooklyn, NY 11223","phone":"718.382.5792","position":"40.590602500000, -73.971753900000","bus":"B1","subway":"F;N","Monday":"10:00am - 6:00pm","Tuesday":"1:00pm - 8:00pm","Wednesday":"10:00am - 6:00pm","Thursday":"10:00am - 8:00pm","Friday":"10:00am - 6:00pm","Saturday":"10:00am - 5:00pm","Sunday":"","hours":"Today's Hours: 10:00am - 5:00pm","closingmsg":"","access":"Fully accessible","tags":"accessible;closed;book drop;","path":"https://www.bklynlibrary.org/locations/gravesend","branchid":"74","pickuploc":"1","branchlist":"1","region":"NewUtrecht"}},{"data":{"title":"Greenpoint Library","address":"107 Norman Ave. at Leonard St. Brooklyn, NY 11222","phone":"718.389.4394","position":"40.725957572456, -73.950881172049","bus":"B24;B43;B48;B62","subway":"G","Monday":"10:00am - 6:00pm","Tuesday":"1:00pm - 8:00pm","Wednesday":"10:00am - 6:00pm","Thursday":"10:00am - 8:00pm","Friday":"10:00am - 6:00pm","Saturday":"10:00am - 5:00pm","Sunday":"1:00pm - 5:00pm","hours":"Today's Hours: 10:00am - 5:00pm","closingmsg":"","access":"Fully accessible","tags":"accessible;closed;book drop;open sundays","path":"https://www.bklynlibrary.org/locations/greenpoint","branchid":"41","pickuploc":"1","branchlist":"1","region":"CrownHeights"}},{"data":{"title":"Highlawn Library","address":"1664 W. 13th St. Brooklyn, NY 11223","phone":"718.234.7208","position":"40.605663200000, -73.986262700000","bus":"B4;B6;B82","subway":"D;F;N","Monday":"10:00am - 6:00pm","Tuesday":"1:00pm - 8:00pm","Wednesday":"10:00am - 6:00pm","Thursday":"10:00am - 8:00pm","Friday":"10:00am - 6:00pm","Saturday":"10:00am - 5:00pm","Sunday":"","hours":"Today's Hours: 10:00am - 5:00pm","closingmsg":"","access":"Fully accessible","tags":"accessible;closed;book drop;","path":"https://www.bklynlibrary.org/locations/highlawn","branchid":"42","pickuploc":"1","branchlist":"1","region":"NewUtrecht"}},{"data":{"title":"Homecrest Library","address":"2525 Coney Island Ave. at Ave. V Brooklyn, NY 11223","phone":"718.382.5924","position":"40.595203400000, -73.960550100000","bus":"B3;B68","subway":"Q","Monday":"10:00am - 6:00pm","Tuesday":"1:00pm - 8:00pm","Wednesday":"10:00am - 6:00pm","Thursday":"10:00am - 8:00pm","Friday":"10:00am - 6:00pm","Saturday":"10:00am - 5:00pm","Sunday":"","hours":"Today's Hours: 10:00am - 5:00pm","closingmsg":"","access":"Fully accessible","tags":"accessible;closed;book drop;","path":"https://www.bklynlibrary.org/locations/homecrest","branchid":"76","pickuploc":"1","branchlist":"1","region":"KingsHighway"}},{"data":{"title":"Jamaica Bay Library","address":"9727 Seaview Ave. at E. 98th St. near Rockaway Pkwy. Brooklyn, NY 11236","phone":"718.241.3571","position":"40.634372321377, -73.888963972823","bus":"B17;B42;B103","subway":"L","Monday":"10:00am - 6:00pm","Tuesday":"1:00pm - 8:00pm","Wednesday":"10:00am - 6:00pm","Thursday":"10:00am - 8:30pm","Friday":"10:00am - 6:00pm","Saturday":"10:00am - 5:00pm","Sunday":"","hours":"Today's Hours: 10:00am - 5:00pm","closingmsg":"","access":"Fully accessible","tags":"accessible;closed;book drop;","path":"https://www.bklynlibrary.org/locations/jamaica-bay","branchid":"81","pickuploc":"1","branchlist":"1","region":"NewLots"}},{"data":{"title":"Kensington Library","address":"4207 18th Avenue Brooklyn, NY 11218","phone":"718.436.0545","position":"40.631285100000, -73.975457100000","bus":"B8","subway":"F","Monday":"10:00am - 6:00pm","Tuesday":"1:00pm - 8:00pm","Wednesday":"10:00am - 6:00pm","Thursday":"10:00am - 8:00pm","Friday":"10:00am - 6:00pm","Saturday":"10:00am - 5:00pm","Sunday":"","hours":"Today's Hours: 10:00am - 5:00pm","closingmsg":"","access":"Fully accessible","tags":"accessible;closed;book drop;","path":"https://www.bklynlibrary.org/locations/kensington","branchid":"43","pickuploc":"1","branchlist":"1","region":"KingsHighway"}},{"data":{"title":"Kings Bay Library","address":"3650 Nostrand Ave. (near Ave. W) Brooklyn, NY 11229","phone":"718.368.1709","position":"40.594787100000, -73.941146200000","bus":"B36;B44","subway":"2;B;Q","Monday":"10:00am - 6:00pm","Tuesday":"1:00pm - 8:00pm","Wednesday":"10:00am - 6:00pm","Thursday":"10:00am - 8:00pm","Friday":"10:00am - 6:00pm","Saturday":"10:00am - 5:00pm","Sunday":"","hours":"Today's Hours: 10:00am - 5:00pm","closingmsg":"","access":"Fully accessible","tags":"accessible;closed;book drop;","path":"https://www.bklynlibrary.org/locations/kings-bay","branchid":"44","pickuploc":"1","branchlist":"1","region":"KingsHighway"}},{"data":{"title":"Kings Highway Library","address":"2115 Ocean Ave. Brooklyn, NY 11229","phone":"718.375.3037","position":"40.610896603349, -73.952589347610","bus":"B2;B7;B31;B49;B82;B100","subway":"B;Q","Monday":"10:00am - 6:00pm","Tuesday":"1:00pm - 8:00pm","Wednesday":"10:00am - 6:00pm","Thursday":"10:00am - 8:00pm","Friday":"10:00am - 6:00pm","Saturday":"10:00am - 5:00pm","Sunday":"1:00pm - 5:00pm","hours":"Today's Hours: 10:00am - 5:00pm","closingmsg":"","access":"Fully accessible","tags":"accessible;closed;passport office;book drop;open sundays","path":"https://www.bklynlibrary.org/locations/kings-highway","branchid":"45","pickuploc":"1","branchlist":"1","region":"KingsHighway"}},{"data":{"title":"(CLOSED) Leonard Library","address":"81 Devoe St. at Leonard St. Brooklyn, NY 11211","phone":"718.486.6006","position":"40.713537746804, -73.947744426265","bus":"B24;B48;B62;Q59","subway":"G;L","Monday":"10:00am - 6:00pm","Tuesday":"1:00pm - 8:00pm","Wednesday":"10:00am - 6:00pm","Thursday":"10:00am - 8:00pm","Friday":"10:00am - 6:00pm","Saturday":"10:00am - 5:00pm","Sunday":"","hours":"Closed for Renovation","closingmsg":"Leonard Library is currently closed for renovations and will reopen in winter 2024.\u00a0\r\n\r\n\r\n\r\nIn the meantime, you can visit Leonard staff around the neighborhood! Meet Nellie the book wagon, check out books, get a library card and more.\u00a0View the\u00a0events calendar\u00a0or our Facebook page\u00a0to find out where we'll be next.\r\n\r\n\u00a0\r\n","access":"Partially accessible","tags":"accessible;closed for renovation;","path":"https://www.bklynlibrary.org/locations/leonard","branchid":"46","pickuploc":"0","branchlist":"1","region":"CrownHeights"}},{"data":{"title":"Macon Library","address":"361 Lewis Ave. at Macon St. Brooklyn, NY 11233","phone":"718.573.5606","position":"40.683036900000, -73.934837600000","bus":"B15;B25;B26;B46","subway":"A;C","Monday":"10:00am - 6:00pm","Tuesday":"1:00pm - 8:00pm","Wednesday":"10:00am - 6:00pm","Thursday":"10:00am - 8:00pm","Friday":"10:00am - 3:00pm","Saturday":"10:00am - 5:00pm","Sunday":"1:00pm - 5:00pm","hours":"Today's Hours: 10:00am - 5:00pm","closingmsg":"","access":"Fully accessible","tags":"accessible;closed;book drop;open sundays","path":"https://www.bklynlibrary.org/locations/macon","branchid":"47","pickuploc":"1","branchlist":"1","region":"NewLots"}},{"data":{"title":"Mapleton Library","address":"1702 60th Street Brooklyn, NY 11204","phone":"718.256.2117","position":"40.623159200000, -73.989456000000","bus":"B8;B9;B23","subway":"D;N","Monday":"10:00am - 6:00pm","Tuesday":"1:00pm - 8:00pm","Wednesday":"10:00am - 6:00pm","Thursday":"10:00am - 8:00pm","Friday":"10:00am - 6:00pm","Saturday":"10:00am - 5:00pm","Sunday":"1:00pm - 5:00pm","hours":"Today's Hours: 10:00am - 5:00pm","closingmsg":"","access":"Fully accessible","tags":"accessible;closed;book drop;open sundays","path":"https://www.bklynlibrary.org/locations/mapleton","branchid":"49","pickuploc":"1","branchlist":"1","region":"KingsHighway"}},{"data":{"title":"Marcy Library","address":"617 DeKalb Ave. at Nostrand Ave. Brooklyn, NY 11216","phone":"718.935.0032","position":"40.691630900000, -73.951264500000","bus":"B38;B44;B48","subway":"G","Monday":"10:00am - 6:00pm","Tuesday":"1:00pm - 8:00pm","Wednesday":"10:00am - 6:00pm","Thursday":"10:00am - 8:00pm","Friday":"10:00am - 6:00pm","Saturday":"10:00am - 5:00pm","Sunday":"","hours":"Today's Hours: 10:00am - 5:00pm","closingmsg":"","access":"Fully accessible","tags":"accessible;closed;book drop;","path":"https://www.bklynlibrary.org/locations/marcy","branchid":"59","pickuploc":"1","branchlist":"1","region":"CrownHeights"}},{"data":{"title":"McKinley Park Library","address":"6802 Fort Hamilton Pkwy (at 68th St.) Brooklyn, NY 11219","phone":"718.748.8001","position":"40.629156398751, -74.011633326408","bus":"B16;B64;B70","subway":"N","Monday":"10:00am - 6:00pm","Tuesday":"1:00pm - 8:00pm","Wednesday":"10:00am - 6:00pm","Thursday":"10:00am - 8:00pm","Friday":"10:00am - 6:00pm","Saturday":"10:00am - 5:00pm","Sunday":"","hours":"Today's Hours: 10:00am - 5:00pm","closingmsg":"","access":"Fully accessible","tags":"accessible;closed;book drop;","path":"https://www.bklynlibrary.org/locations/mckinley-park","branchid":"67","pickuploc":"1","branchlist":"1","region":"NewUtrecht"}},{"data":{"title":"Midwood Library","address":"975 East 16th St. at Avenue J Brooklyn, NY 11230","phone":"718.252.0967","position":"40.625907000000, -73.960400500000","bus":"B6;B11;B49;B68","subway":"Q","Monday":"10:00am - 6:00pm","Tuesday":"1:00pm - 8:00pm","Wednesday":"10:00am - 6:00pm","Thursday":"10:00am - 8:00pm","Friday":"10:00am - 6:00pm","Saturday":"10:00am - 5:00pm","Sunday":"1:00pm - 5:00pm","hours":"","closingmsg":"","access":"Fully accessible","tags":"accessible;book drop;open sundays","path":"https://www.bklynlibrary.org/locations/midwood","branchid":"48","pickuploc":"1","branchlist":"1","region":"KingsHighway"}},{"data":{"title":"Mill Basin Library","address":"2385 Ralph Ave (near Ave N) Brooklyn, NY 11234","phone":"718.241.3979","position":"40.619945400000, -73.916922600000","bus":"B3;B6;B41;B47;B82;B100","subway":"2;5","Monday":"10:00am - 6:00pm","Tuesday":"1:00pm - 8:00pm","Wednesday":"10:00am - 6:00pm","Thursday":"10:00am - 8:00pm","Friday":"10:00am - 6:00pm","Saturday":"10:00am - 5:00pm","Sunday":"","hours":"Today's Hours: 10:00am - 5:00pm","closingmsg":"","access":"Fully accessible","tags":"accessible;closed;book drop;","path":"https://www.bklynlibrary.org/locations/mill-basin","branchid":"68","pickuploc":"1","branchlist":"1","region":"Flatbush"}},{"data":{"title":"New Lots Library","address":"665 New Lots Avenue at Barbey St. Brooklyn, NY 11207","phone":"718.649.0311","position":"40.665115400000, -73.886147800000","bus":"B6;B15;B84","subway":"3","Monday":"10:00am - 6:00pm","Tuesday":"1:00pm - 8:00pm","Wednesday":"10:00am - 6:00pm","Thursday":"10:00am - 8:00pm","Friday":"10:00am - 6:00pm","Saturday":"10:00am - 5:00pm","Sunday":"1:00pm - 5:00pm","hours":"Today's Hours: 10:00am - 5:00pm","closingmsg":"","access":"Fully accessible","tags":"accessible;closed;book drop;open sundays","path":"https://www.bklynlibrary.org/locations/new-lots","branchid":"52","pickuploc":"1","branchlist":"1","region":"NewLots"}},{"data":{"title":"New Utrecht Library","address":"1743 86th St. at Bay 17th St. Brooklyn, NY 11214","phone":"718.236.4086","position":"40.608018700000, -74.003341100000","bus":"B1;B8","subway":"D","Monday":"10:00am - 6:00pm","Tuesday":"1:00pm - 8:00pm","Wednesday":"10:00am - 6:00pm","Thursday":"10:00am - 8:00pm","Friday":"10:00am - 6:00pm","Saturday":"10:00am - 5:00pm","Sunday":"","hours":"Today's Hours: 10:00am - 5:00pm","closingmsg":"","access":"Fully accessible","tags":"accessible;closed;book drop;","path":"https://www.bklynlibrary.org/locations/new-utrecht","branchid":"51","pickuploc":"1","branchlist":"1","region":"NewUtrecht"}},{"data":{"title":"Pacific Library","address":"25 Fourth Ave. at Pacific St. Brooklyn, NY 11217","phone":"718.638.1531","position":"40.683591220380, -73.978628513905","bus":"B41;B63;B65;B67;B103","subway":"2;3;4;5;B;D;M;N;Q;R","Monday":"10:00am - 6:00pm","Tuesday":"1:00pm - 8:00pm","Wednesday":"10:00am - 6:00pm","Thursday":"10:00am - 8:00pm","Friday":"10:00am - 6:00pm","Saturday":"10:00am - 5:00pm","Sunday":"","hours":"Today's Hours: 10:00am - 5:00pm","closingmsg":"","access":"Partially accessible","tags":"accessible;closed;book drop;","path":"https://www.bklynlibrary.org/locations/pacific","branchid":"69","pickuploc":"1","branchlist":"1","region":"ParkSlope"}},{"data":{"title":"Paerdegat Library","address":"850 E. 59th St. at Paerdegat Ave. South Brooklyn, NY 11234","phone":"718.241.3994","position":"40.632597300000, -73.919953900000","bus":"B6;B47;B82","subway":"2;5","Monday":"10:00am - 6:00pm","Tuesday":"1:00pm - 8:00pm","Wednesday":"10:00am - 6:00pm","Thursday":"10:00am - 8:00pm","Friday":"10:00am - 6:00pm","Saturday":"10:00am - 5:00pm","Sunday":"","hours":"Today's Hours: 10:00am - 5:00pm","closingmsg":"","access":"Fully accessible","tags":"accessible;closed;book drop;","path":"https://www.bklynlibrary.org/locations/paerdegat","branchid":"78","pickuploc":"1","branchlist":"1","region":"Flatbush"}},{"data":{"title":"Park Slope Library","address":"431 6th Ave Brooklyn, NY 11215","phone":"718.832.1853","position":"40.668217400000, -73.983416200000","bus":"B61;B67;B69","subway":"F;G;R","Monday":"10:00am - 6:00pm","Tuesday":"1:00pm - 8:00pm","Wednesday":"10:00am - 6:00pm","Thursday":"10:00am - 8:00pm","Friday":"10:00am - 6:00pm","Saturday":"10:00am - 5:00pm","Sunday":"","hours":"Today's Hours: 10:00am - 5:00pm","closingmsg":"","access":"Fully accessible","tags":"accessible;closed;book drop;","path":"https://www.bklynlibrary.org/locations/park-slope","branchid":"53","pickuploc":"1","branchlist":"1","region":"ParkSlope"}},{"data":{"title":"(CLOSED) Red Hook Library","address":"7 Wolcott St Brooklyn, NY 11231","phone":"718.935.0203","position":"40.675278000000, -74.010319300000","bus":"B61","subway":"F;G","Monday":"10:00am - 6:00pm","Tuesday":"1:00pm - 8:00pm","Wednesday":"10:00am - 6:00pm","Thursday":"10:00am - 8:00pm","Friday":"10:00am - 6:00pm","Saturday":"10:00am - 5:00pm","Sunday":"","hours":"Closed for Renovation","closingmsg":"Red Hook Library closed\u00a0on March 17, 2023 for a comprehensive interior and exterior renovation that will expand and protect this important public space. View upcoming programs in the Red Hook neighborhood.\u00a0\r\n","access":"Fully accessible","tags":"accessible;closed for renovation;book drop;","path":"https://www.bklynlibrary.org/locations/red-hook","branchid":"70","pickuploc":"0","branchlist":"1","region":"ParkSlope"}},{"data":{"title":"Rugby Library","address":"1000 Utica Ave. Brooklyn, NY 11203","phone":"718.566.0053","position":"40.648657600000, -73.930379300000","bus":"B35;B46","subway":"2;3;4","Monday":"10:00am - 6:00pm","Tuesday":"1:00pm - 8:00pm","Wednesday":"10:00am - 6:00pm","Thursday":"10:00am - 8:00pm","Friday":"10:00am - 6:00pm","Saturday":"10:00am - 5:00pm","Sunday":"","hours":"Today's Hours: 10:00am - 5:00pm","closingmsg":"","access":"Fully accessible","tags":"accessible;closed;book drop;","path":"https://www.bklynlibrary.org/locations/rugby","branchid":"54","pickuploc":"1","branchlist":"1","region":"Flatbush"}},{"data":{"title":"(CLOSED) Ryder Library","address":"5902 23rd Ave. Brooklyn, NY 11204","phone":"718.331.2962","position":"40.615925100000, -73.975980400000","bus":"B6;B9","subway":"F","Monday":"10:00am - 6:00pm","Tuesday":"1:00pm - 8:00pm","Wednesday":"10:00am - 6:00pm","Thursday":"10:00am - 8:00pm","Friday":"10:00am - 6:00pm","Saturday":"10:00am - 5:00pm","Sunday":"1:00pm - 5:00pm","hours":"Closed for Renovation","closingmsg":"Ryder Library is closed for infastructure and interior renovations. Please let us know what you would like to see in this renovation.\u00a0Ryder Library is expected to open in 2025.\r\n\r\nPlease check\u00a0the locations map\u00a0to find open branches in your area.\u00a0\r\n","access":"Fully accessible","tags":"accessible;closed for renovation;book drop;open sundays","path":"https://www.bklynlibrary.org/locations/ryder","branchid":"80","pickuploc":"0","branchlist":"1","region":"KingsHighway"}},{"data":{"title":"Saratoga Library","address":"8 Thomas S. Boyland St. at Macon St. Brooklyn, NY 11233","phone":"718.573.5224","position":"40.684829049768, -73.915029775407","bus":"B7;B26;Q24","subway":"J","Monday":"10:00am - 6:00pm","Tuesday":"1:00pm - 8:00pm","Wednesday":"10:00am - 6:00pm","Thursday":"10:00am - 8:00pm","Friday":"10:00am - 6:00pm","Saturday":"10:00am - 5:00pm","Sunday":"","hours":"Today's Hours: 10:00am - 5:00pm","closingmsg":"","access":"Fully accessible","tags":"accessible;closed;book drop;","path":"https://www.bklynlibrary.org/locations/saratoga","branchid":"57","pickuploc":"1","branchlist":"1","region":"NewLots"}},{"data":{"title":"Sheepshead Bay Library","address":"2636 E. 14th St. at Ave. Z Brooklyn, NY 11235","phone":"718.368.1815","position":"40.586965100000, -73.955407100000","bus":"B4;B36;B49;B68","subway":"B;Q","Monday":"10:00am - 6:00pm","Tuesday":"1:00pm - 8:00pm","Wednesday":"10:00am - 6:00pm","Thursday":"10:00am - 8:00pm","Friday":"10:00am - 6:00pm","Saturday":"10:00am - 5:00pm","Sunday":"","hours":"Today's Hours: 10:00am - 5:00pm","closingmsg":"","access":"Fully accessible","tags":"accessible;closed;book drop;","path":"https://www.bklynlibrary.org/locations/sheepshead-bay","branchid":"56","pickuploc":"1","branchlist":"1","region":"KingsHighway"}},{"data":{"title":"Spring Creek Library","address":"12143 Flatlands Ave. at New Jersey Ave. Brooklyn, NY 11207","phone":"718.257.6571","position":"40.653263700000, -73.885964100000","bus":"B6;B20;B82;B83","subway":"3","Monday":"10:00am - 6:00pm","Tuesday":"1:00pm - 8:00pm","Wednesday":"10:00am - 6:00pm","Thursday":"10:00am - 8:00pm","Friday":"10:00am - 6:00pm","Saturday":"10:00am - 5:00pm","Sunday":"","hours":"Today's Hours: 10:00am - 5:00pm","closingmsg":"","access":"Fully accessible","tags":"accessible;closed;book drop;","path":"https://www.bklynlibrary.org/locations/spring-creek","branchid":"85","pickuploc":"1","branchlist":"1","region":"NewLots"}},{"data":{"title":"Stone Avenue Library","address":"581 Mother Gaston Boulevard Brooklyn, NY 11212","phone":"718.485.8347","position":"40.664441800000, -73.905256300000","bus":"B14;B60","subway":"3;L","Monday":"10:00am - 6:00pm","Tuesday":"1:00pm - 8:00pm","Wednesday":"10:00am - 6:00pm","Thursday":"10:00am - 8:00pm","Friday":"10:00am - 6:00pm","Saturday":"10:00am - 5:00pm","Sunday":"","hours":"Today's Hours: 10:00am - 5:00pm","closingmsg":"","access":"Fully accessible","tags":"accessible;closed;","path":"https://www.bklynlibrary.org/locations/stone-avenue","branchid":"26","pickuploc":"1","branchlist":"1","region":"NewLots"}},{"data":{"title":"(CLOSED) Sunset Park Library","address":"4201 Fourth Avenue Brooklyn, NY 11232","phone":"718.435.3648","position":"40.650508200000, -74.007932200000","bus":"B11;B63","subway":"N;R","Monday":"8:00am - 1:00pm","Tuesday":"8:00am - 1:00pm","Wednesday":"8:00am - 1:00pm","Thursday":"8:00am - 1:00pm","Friday":"8:00am - 1:00pm","Saturday":"9:00am - 1:00pm","Sunday":"","hours":"Closed for Renovation","closingmsg":"Sunset Park Library's interim location (4201 4th Ave) will close to the public\u00a0on\u00a0September 1\u00a0as we prepare to open the neighborhood's permanent location at 5108 4th Ave. We look forward to welcoming you to\u00a0the brand new Sunset Park Library\u00a0in\u00a0November 2023.\r\n\r\nPatrons can no longer place new holds for pickup at Sunset Park Library. Previously requested holds will be fulfilled as usual through the end of August. Any holds not picked up by September 1 will be transferred to Bay Ridge Library for pickup.\u00a0\r\n\r\nBookmobile Service will be available near the interim branch (4201 4th Ave):\u00a0Tuesdays, September 5 & 19 (11 am \u2013 4 pm) and\u00a0at the new Sunset Park Library (5108 4th Ave):\u00a0Tuesdays, October 3, 17 & 31 (11 am \u2013 4 pm). You can also visit a\u00a0nearby BPL location\u00a0for any of your library needs.\r\n","access":"Partially accessible","tags":"accessible;closed for renovation;","path":"https://www.bklynlibrary.org/locations/sunset-park","branchid":"55","pickuploc":"0","branchlist":"1","region":"NewUtrecht"}},{"data":{"title":"Ulmer Park Library","address":"2602 Bath Avenue at 26th Ave Brooklyn, NY 11214","phone":"718.265.3443","position":"40.592612400000, -73.988650200000","bus":"B1;B3;B4;B6;B64;B82","subway":"D","Monday":"10:00am - 6:00pm","Tuesday":"1:00pm - 8:00pm","Wednesday":"10:00am - 6:00pm","Thursday":"10:00am - 8:00pm","Friday":"10:00am - 6:00pm","Saturday":"10:00am - 5:00pm","Sunday":"","hours":"Today's Hours: 10:00am - 5:00pm","closingmsg":"","access":"Fully accessible","tags":"accessible;closed;book drop;","path":"https://www.bklynlibrary.org/locations/ulmer-park","branchid":"71","pickuploc":"1","branchlist":"1","region":"NewUtrecht"}},{"data":{"title":"Walt Whitman Library","address":"93 Saint Edwards Street Brooklyn, NY 11205","phone":"718.935.0244","position":"40.694463200000, -73.977726700000","bus":"B54","subway":"4;5;A;B;F;Q;R","Monday":"10:00am - 6:00pm","Tuesday":"1:00pm - 8:00pm","Wednesday":"10:00am - 6:00pm","Thursday":"10:00am - 8:00pm","Friday":"10:00am - 6:00pm","Saturday":"10:00am - 5:00pm","Sunday":"","hours":"Today's Hours: 10:00am - 5:00pm","closingmsg":"","access":"Fully accessible","tags":"accessible;closed;","path":"https://www.bklynlibrary.org/locations/walt-whitman","branchid":"62","pickuploc":"1","branchlist":"1","region":"ParkSlope"}},{"data":{"title":"Washington Irving Library","address":"360 Irving Ave. (at Woodbine St.) Brooklyn, NY 11237","phone":"718.628.8378","position":"40.697503100000, -73.912237800000","bus":"B13;B18;B26;B52;B54;Q55;Q58","subway":"J;L;M","Monday":"10:00am - 6:00pm","Tuesday":"1:00pm - 8:00pm","Wednesday":"10:00am - 6:00pm","Thursday":"10:00am - 8:00pm","Friday":"10:00am - 6:00pm","Saturday":"10:00am - 5:00pm","Sunday":"","hours":"Today's Hours: 10:00am - 5:00pm","closingmsg":"","access":"Fully accessible","tags":"accessible;closed;book drop;","path":"https://www.bklynlibrary.org/locations/washington-irving","branchid":"61","pickuploc":"1","branchlist":"1","region":"CrownHeights"}},{"data":{"title":"Williamsburgh Library","address":"240 Division Ave. at Marcy Ave. Brooklyn, NY 11211","phone":"718.302.3485","position":"40.706914300000, -73.957588300000","bus":"B24;B32;B39;B44;B46;B60;B62;Q54;Q59","subway":"G;J;M;Z","Monday":"10:00am - 6:00pm","Tuesday":"1:00pm - 8:00pm","Wednesday":"10:00am - 6:00pm","Thursday":"10:00am - 8:00pm","Friday":"10:00am - 6:00pm","Saturday":"10:00am - 5:00pm","Sunday":"","hours":"Today's Hours: 10:00am - 5:00pm","closingmsg":"","access":"Fully accessible","tags":"accessible;closed;","path":"https://www.bklynlibrary.org/locations/williamsburgh","branchid":"60","pickuploc":"1","branchlist":"1","region":"ParkSlope"}},{"data":{"title":"Windsor Terrace Library","address":"160 E. 5th St. at Ft. Hamilton Pkwy. Brooklyn, NY 11218","phone":"718.686.9707","position":"40.648967368107, -73.976689938279","bus":"B16;B67;B68","subway":"F;G","Monday":"10:00am - 6:00pm","Tuesday":"1:00pm - 8:00pm","Wednesday":"10:00am - 6:00pm","Thursday":"10:00am - 8:00pm","Friday":"10:00am - 6:00pm","Saturday":"10:00am - 5:00pm","Sunday":"","hours":"Today's Hours: 10:00am - 5:00pm","closingmsg":"","access":"Partially accessible","tags":"accessible;closed;book drop;","path":"https://www.bklynlibrary.org/locations/windsor-terrace","branchid":"77","pickuploc":"1","branchlist":"1","region":"Flatbush"}}]}